{"921": [{"address": "\u58eb\u6797\u6587\u660c\u8def179\u5df711\u865f2\u6a13", "lat": 25.0983705, "lng": 121.5193566}, {"address": "\u58eb\u6797\u5929\u6bcd\u6771\u8def105\u5df71\u865f3\u865f\u5730\u4e0b\u5ba4", "lat": 25.1186139, "lng": 121.5364242}, {"address": "\u5927\u540c\u6566\u714c\u8def165\u865f2\u6a13", "lat": 25.0767522, "lng": 121.5113497}, {"address": "\u5927\u5b89\u548c\u5e73\u6771\u8def\u4e8c\u6bb528\u865f", "lat": 25.025539, "lng": 121.536727}, {"address": "\u4e2d\u5c71\u5409\u6797\u8def221\u81f3223\u865f", "lat": 25.0606666, "lng": 121.5304352}, {"address": "\u4e2d\u5c71\u9577\u6625\u8def346\u865f", "lat": 25.0545213, "lng": 121.5412026}, {"address": "\u4e2d\u5c71\u65b0\u751f\u5317\u8def\u4e8c\u6bb541\u5df721\u300123\u865f", "lat": 25.05541, "lng": 121.5291637}, {"address": "\u5167\u6e56\u65b0\u660e\u8def181\u5df73\u30015\u30017\u865f", "lat": 25.0582839, "lng": 121.588644}, {"address": "\u5167\u6e56\u6e2f\u5898\u8def113\u865f5\u6a13", "lat": 25.078584, "lng": 121.5765971}, {"address": "\u5167\u6e56\u74b0\u5c71\u8def\u4e8c\u6bb56\u81f38\u865f\u300110\u5df72\u81f34\u865f\u300110\u5df76\u5f046\u81f38\u865f", "lat": 25.0865232, "lng": 121.5708694}, {"address": "\u6587\u5c71\u6728\u65b0\u8def2\u6bb586\u865f\u81f394\u865f", "lat": 24.98537, "lng": 121.5703874}, {"address": "\u5317\u6295\u4e2d\u592e\u5317\u8def\u56db\u6bb5442\u5df74\u5f042\u81f310\u865f", "lat": 25.1293373, "lng": 121.4700664}, {"address": "\u5317\u6295\u5149\u660e\u8def73\u5df711\u865f", "lat": 25.1333035, "lng": 121.4999389}, {"address": "\u5317\u6295\u6cc9\u6e90\u8def29\u4e4b1\u30012\u30013\u30014\u865f\uff1b 33\u4e4b1\u30012\u30013\u30014\u865f", "lat": 25.1412326, "lng": 121.5070537}, {"address": "\u5317\u6295\u6e05\u6c5f\u8def156\u865f1\u6a13", "lat": 25.1284979, "lng": 121.5017735}, {"address": "\u5317\u6295\u6e05\u6c5f\u8def207\u5df74\u865f", "lat": 25.1273259, "lng": 121.502236}, {"address": "\u5317\u6295\u81f4\u9060\u4e8c\u8def95\u5df734\u5f042\u865f", "lat": 25.1169758, "lng": 121.5110944}, {"address": "\u5317\u6295\u5c0a\u8ce2\u8857218\u5df723\u5f048\u81f310\u865f", "lat": 25.1161019, "lng": 121.5088062}, {"address": "\u5317\u6295\u77e5\u884c\u8def62\u81f374\u865f", "lat": 25.11818, "lng": 121.467757}, {"address": "\u5317\u6295\u5d17\u5c71\u8def5\u5df716\u865f3\u6a13", "lat": 25.1401097, "lng": 121.4862003}, {"address": "\u5317\u6295\u77e5\u884c\u8def293\u5df74\u81f310\u865f\u7b49\u3010\u95dc\u6e21\u9ec3\u91d1\u57ce\u3011", "lat": 25.1219728, "lng": 121.4669984}, {"address": "\u5317\u6295\u4e2d\u592e\u5317\u8def\u4e09\u6bb5124\u865f", "lat": 25.137468, "lng": 121.4833491}, {"address": "\u5317\u6295\u660e\u5fb7\u8def274\u81f3278\u865f\u3001282\u81f3284\u865f", "lat": 25.1146015, "lng": 121.522501}, {"address": "\u5317\u6295\u77e5\u884c\u8def60\u5df71\u865f", "lat": 25.118044, "lng": 121.4677785}, {"address": "\u677e\u5c71\u5357\u4eac\u6771\u8def\u56db\u6bb599\u865f4\u6a13", "lat": 25.0518248, "lng": 121.5543902}, {"address": "\u4fe1\u7fa9\u4e2d\u5761\u5357\u8def120\u81f3136\u865f", "lat": 25.0407396, "lng": 121.5848526}, {"address": "\u4fe1\u7fa9\u4fe1\u7fa9\u8def\u56db\u6bb5405\u3001407\u865f", "lat": 25.0333292, "lng": 121.5588981}, {"address": "\u4fe1\u7fa9\u677e\u9686\u8def200\u3001202\u865f", "lat": 25.046924, "lng": 121.572585}, {"address": "\u4fe1\u7fa9\u6c38\u5409\u8def328\u865f\u81f3342\u865f(\u4ee3\u8868\u5730\u5740)", "lat": 25.0453646, "lng": 121.575556}, {"address": "\u5357\u6e2f\u5fe0\u5b5d\u6771\u8def\u516d\u6bb5278\u5df723\u5f0436\u865f", "lat": 25.0488047, "lng": 121.590839}, {"address": "\u842c\u83ef\u9577\u6cf0\u885748\u300150\u865f", "lat": 25.0235317, "lng": 121.5005829}], "331": [{"address": "\u58eb\u6797\u627f\u5fb7\u8def\u56db\u6bb5340\u3001342\u865f", "lat": 25.0900524, "lng": 121.5174371}, {"address": "\u58eb\u6797\u83ef\u9f61\u88571\u5df78\uff5e14\u865f", "lat": 25.0950492, "lng": 121.5246077}, {"address": "\u5927\u540c\u6c11\u6b0a\u897f\u8def118\u5df715\u5f041\u30013\u30015\u30017\u865f\uff08\u6c11\u5fb7\u5927\u6a13\uff09", "lat": 25.0621606, "lng": 121.5175172}, {"address": "\u5927\u5b89\u5149\u5fa9\u5357\u8def626\u865f\uff08\u9060\u6771\u5927\u5ec8\uff09", "lat": 25.0318033, "lng": 121.5571763}, {"address": "\u4e2d\u6b63\u91d1\u5c71\u5357\u8def\u4e00\u6bb5125\u865f", "lat": 25.0357585, "lng": 121.5278376}, {"address": "\u4e2d\u6b63\u5e2b\u5927\u8def186\u5df71\u865f", "lat": 25.0211654, "lng": 121.5244979}, {"address": "\u6587\u5c71\u5fe0\u9806\u8857\u4e00\u6bb510\u5df72\u30014\u30016\u865f", "lat": 24.9838357, "lng": 121.5582059}, {"address": "\u5317\u6295\u5d07\u4ec1\u8def\u4e00\u6bb580\u5df73\u865f2~5\u6a13", "lat": 25.1258953, "lng": 121.5012983}, {"address": "\u4fe1\u7fa9\u864e\u6797\u885759\u5df72\u81f38\u865f", "lat": 25.0464424, "lng": 121.5775458}]}